[
  {
    "name": "강릉중학교",
    "lat": 37.7537254,
    "lng": 128.9092051
  },
  {
    "name": "강원생명과학고등학교",
    "lat": 37.909222,
    "lng": 127.7243233
  },
  {
    "name": "춘천여자고등학교",
    "lat": 37.8882363,
    "lng": 127.76396
  },
  {
    "name": "원주고등학교",
    "lat": 37.3396777,
    "lng": 127.9546775
  },
  {
    "name": "원주의료고등학교",
    "lat": 37.3137964,
    "lng": 127.8224852
  },
  {
    "name": "원통고등학교",
    "lat": 38.1282473,
    "lng": 128.2137252
  },
  {
    "name": "속초고등학교",
    "lat": 38.2251602,
    "lng": 128.5837488
  },
  {
    "name": "설악고등학교",
    "lat": 38.1852227,
    "lng": 128.5737808
  },
  {
    "name": "기린고등학교",
    "lat": 37.9467714,
    "lng": 128.3124994
  },
  {
    "name": "내면고등학교",
    "lat": 37.796201,
    "lng": 128.4019781
  },
  {
    "name": "대진고등학교",
    "lat": 38.4841245,
    "lng": 128.4329446
  },
  {
    "name": "둔내고등학교",
    "lat": 37.5116373,
    "lng": 128.2130251
  },
  {
    "name": "강릉문성고등학교",
    "lat": 37.7756269,
    "lng": 128.8700323
  },
  {
    "name": "신천초등학교",
    "lat": 37.2358782,
    "lng": 128.3287537
  },
  {
    "name": "양구중학교",
    "lat": 38.1002987,
    "lng": 127.991474
  },
  {
    "name": "용하초등학교",
    "lat": 38.109703,
    "lng": 128.03531
  },
  {
    "name": "임당초등학교병설유치원",
    "lat": 38.2010697,
    "lng": 128.0429901
  },
  {
    "name": "광정초등학교",
    "lat": 38.0183305,
    "lng": 128.7252213
  },
  {
    "name": "양양초등학교",
    "lat": 38.0772122,
    "lng": 128.6223116
  },
  {
    "name": "인구초등학교",
    "lat": 37.9681209,
    "lng": 128.7583289
  },
  {
    "name": "청호초등학교",
    "lat": 38.195536,
    "lng": 128.5978391
  },
  {
    "name": "현북초등학교",
    "lat": 38.015546,
    "lng": 128.6975056
  },
  {
    "name": "가곡중학교",
    "lat": 37.1458582,
    "lng": 129.205583
  },
  {
    "name": "도계초등학교",
    "lat": 37.2335354,
    "lng": 129.0449449
  },
  {
    "name": "망상초등학교",
    "lat": 37.5290323,
    "lng": 129.1099341
  },
  {
    "name": "거진중학교",
    "lat": 38.4467422,
    "lng": 128.4483611
  },
  {
    "name": "거성초등학교",
    "lat": 38.4522834,
    "lng": 128.4575784
  },
  {
    "name": "숲실초등학교",
    "lat": 37.6772916,
    "lng": 128.9694033
  },
  {
    "name": "화천정보산업고등학교",
    "lat": 38.1072572,
    "lng": 127.7046206
  },
  {
    "name": "장학초등학교",
    "lat": 37.8951603,
    "lng": 127.7524785
  },
  {
    "name": "근화초등학교",
    "lat": 37.8891561,
    "lng": 127.7230278
  },
  {
    "name": "와수초등학교",
    "lat": 38.2355599,
    "lng": 127.4340874
  },
  {
    "name": "철원초등학교",
    "lat": 38.2139536,
    "lng": 127.2108848
  },
  {
    "name": "토성초등학교병설유치원",
    "lat": 38.2419487,
    "lng": 127.3439336
  },
  {
    "name": "김화중학교",
    "lat": 38.2428417,
    "lng": 127.4349752
  },
  {
    "name": "벽탄초등학교",
    "lat": 37.3948121,
    "lng": 128.6011242
  },
  {
    "name": "귀래중학교",
    "lat": 37.1716765,
    "lng": 127.8850342
  },
  {
    "name": "남원주중학교",
    "lat": 37.3225814,
    "lng": 127.9451678
  },
  {
    "name": "부론중학교",
    "lat": 37.2084666,
    "lng": 127.7521723
  },
  {
    "name": "고산초등학교",
    "lat": 37.4459422,
    "lng": 127.9277345
  },
  {
    "name": "구래초등학교",
    "lat": 37.1425045,
    "lng": 128.8394352
  },
  {
    "name": "수백초등학교",
    "lat": 37.533746,
    "lng": 128.0071478
  },
  {
    "name": "상승초등학교",
    "lat": 38.1572685,
    "lng": 127.6498139
  },
  {
    "name": "유촌초등학교",
    "lat": 38.0553552,
    "lng": 127.7911686
  },
  {
    "name": "대동여자중학교",
    "lat": 37.4922647,
    "lng": 127.979748
  },
  {
    "name": "서원중학교",
    "lat": 37.486922,
    "lng": 127.8465481
  },
  {
    "name": "횡성중학교",
    "lat": 37.4854026,
    "lng": 127.978543
  },
  {
    "name": "화천중학교",
    "lat": 38.0970197,
    "lng": 127.7064415
  },
  {
    "name": "서석중학교",
    "lat": 37.7099738,
    "lng": 128.1896947
  },
  {
    "name": "대화초등학교",
    "lat": 37.4975377,
    "lng": 128.4568287
  },
  {
    "name": "쌍룡초등학교",
    "lat": 37.1782899,
    "lng": 128.3190345
  },
  {
    "name": "동점초등학교병설유치원",
    "lat": 37.1004512,
    "lng": 129.0502873
  },
  {
    "name": "상장중학교",
    "lat": 37.1371815,
    "lng": 129.0011426
  },
  {
    "name": "교동초등학교병설유치원",
    "lat": 37.8808519,
    "lng": 127.7372461
  },
  {
    "name": "원주여자고등학교",
    "lat": 37.3366846,
    "lng": 127.9771463
  },
  {
    "name": "임계고등학교",
    "lat": 37.4921917,
    "lng": 128.8453008
  },
  {
    "name": "사천초등학교",
    "lat": 37.8219231,
    "lng": 128.8506474
  },
  {
    "name": "금광초등학교",
    "lat": 37.7041812,
    "lng": 128.9140341
  },
  {
    "name": "주천고등학교",
    "lat": 37.2761845,
    "lng": 128.2637312
  },
  {
    "name": "장흥초등학교",
    "lat": 38.1936495,
    "lng": 127.2669646
  },
  {
    "name": "서면초등학교병설유치원",
    "lat": 38.1690047,
    "lng": 127.4164808
  },
  {
    "name": "강원중학교",
    "lat": 37.8960793,
    "lng": 127.7567195
  },
  {
    "name": "남춘천여자중학교",
    "lat": 37.8592323,
    "lng": 127.7205916
  },
  {
    "name": "철원중학교",
    "lat": 38.2106449,
    "lng": 127.2112866
  },
  {
    "name": "문혜초등학교",
    "lat": 38.1884558,
    "lng": 127.3196499
  },
  {
    "name": "백전초등학교",
    "lat": 37.2743963,
    "lng": 128.8733444
  },
  {
    "name": "사북초등학교",
    "lat": 37.2285534,
    "lng": 128.8346259
  },
  {
    "name": "예미초등학교",
    "lat": 37.2210409,
    "lng": 128.6455368
  },
  {
    "name": "함백초등학교",
    "lat": 37.2159095,
    "lng": 128.6724962
  },
  {
    "name": "상동고등학교",
    "lat": 37.1249772,
    "lng": 128.82161
  },
  {
    "name": "강일여자고등학교",
    "lat": 37.7645378,
    "lng": 128.8867778
  },
  {
    "name": "김화고등학교",
    "lat": 38.2434137,
    "lng": 127.4335217
  },
  {
    "name": "도계고등학교",
    "lat": 37.2299846,
    "lng": 129.0531724
  },
  {
    "name": "청운초등학교",
    "lat": 37.4851317,
    "lng": 129.1039763
  },
  {
    "name": "온정초등학교",
    "lat": 38.1901304,
    "lng": 128.5546374
  },
  {
    "name": "미로초등학교",
    "lat": 37.4148973,
    "lng": 129.1144174
  },
  {
    "name": "장호초등학교",
    "lat": 37.2883624,
    "lng": 129.3018311
  },
  {
    "name": "근덕중학교",
    "lat": 37.3414433,
    "lng": 129.2552153
  },
  {
    "name": "묵호초등학교",
    "lat": 37.5522961,
    "lng": 129.1026413
  },
  {
    "name": "죽왕초등학교",
    "lat": 38.3303074,
    "lng": 128.5228546
  },
  {
    "name": "천진초등학교",
    "lat": 38.2571512,
    "lng": 128.5574563
  },
  {
    "name": "공현진초등학교",
    "lat": 38.353925,
    "lng": 128.5074795
  },
  {
    "name": "주문진초등학교",
    "lat": 37.8865492,
    "lng": 128.8265957
  },
  {
    "name": "초당초등학교",
    "lat": 37.7817021,
    "lng": 128.9138108
  },
  {
    "name": "임계중학교",
    "lat": 37.4921917,
    "lng": 128.8453008
  },
  {
    "name": "학림유치원",
    "lat": 37.3220275,
    "lng": 127.9361163
  },
  {
    "name": "기린중학교",
    "lat": 37.9467714,
    "lng": 128.3124994
  },
  {
    "name": "명륜초등학교",
    "lat": 37.3421333,
    "lng": 127.9586006
  },
  {
    "name": "우산초등학교",
    "lat": 37.3693688,
    "lng": 127.9331369
  },
  {
    "name": "학성초등학교",
    "lat": 37.3605571,
    "lng": 127.9588787
  },
  {
    "name": "용하초등학교병설유치원",
    "lat": 38.109703,
    "lng": 128.03531
  },
  {
    "name": "마차중학교",
    "lat": 37.2563628,
    "lng": 128.4525588
  },
  {
    "name": "강현초등학교",
    "lat": 38.1493101,
    "lng": 128.6040208
  },
  {
    "name": "설악초등학교",
    "lat": 38.1638501,
    "lng": 128.5406741
  },
  {
    "name": "중앙초등학교",
    "lat": 38.2101456,
    "lng": 128.5848272
  },
  {
    "name": "청대초등학교",
    "lat": 38.1914654,
    "lng": 128.5771612
  },
  {
    "name": "현성초등학교",
    "lat": 37.9519079,
    "lng": 128.665278
  },
  {
    "name": "진주초등학교",
    "lat": 37.4337482,
    "lng": 129.1648782
  },
  {
    "name": "천곡초등학교",
    "lat": 37.5176666,
    "lng": 129.1079545
  },
  {
    "name": "동광초등학교",
    "lat": 38.2885137,
    "lng": 128.5440435
  },
  {
    "name": "오호초등학교",
    "lat": 38.313272,
    "lng": 128.531692
  },
  {
    "name": "묵호중학교",
    "lat": 37.5435742,
    "lng": 129.1058395
  },
  {
    "name": "왕산초등학교병설유치원",
    "lat": 37.6734142,
    "lng": 128.8361436
  },
  {
    "name": "진부고등학교",
    "lat": 37.6354535,
    "lng": 128.5525332
  },
  {
    "name": "평창고등학교",
    "lat": 37.3714857,
    "lng": 128.4054084
  },
  {
    "name": "내면중학교",
    "lat": 37.796201,
    "lng": 128.4019781
  },
  {
    "name": "내촌중학교",
    "lat": 37.818229,
    "lng": 128.0925591
  },
  {
    "name": "한서중학교",
    "lat": 37.6879656,
    "lng": 127.5945545
  },
  {
    "name": "신리초등학교",
    "lat": 37.5372181,
    "lng": 128.4567715
  },
  {
    "name": "남산초등학교서천분교장",
    "lat": 37.8356561,
    "lng": 127.5550518
  },
  {
    "name": "지촌초등학교지암분교장",
    "lat": 37.9811303,
    "lng": 127.6071198
  },
  {
    "name": "상천초등학교",
    "lat": 37.933607,
    "lng": 127.7853648
  },
  {
    "name": "효제초등학교",
    "lat": 37.8707838,
    "lng": 127.738143
  },
  {
    "name": "봄내중학교",
    "lat": 37.8650304,
    "lng": 127.7408342
  },
  {
    "name": "오덕초등학교",
    "lat": 38.2246558,
    "lng": 127.2322856
  },
  {
    "name": "문혜초등학교병설유치원",
    "lat": 38.1884558,
    "lng": 127.3196499
  },
  {
    "name": "나전중학교",
    "lat": 37.4413432,
    "lng": 128.6641584
  },
  {
    "name": "갈래초등학교",
    "lat": 37.1950077,
    "lng": 128.8663929
  },
  {
    "name": "상남중학교",
    "lat": 37.8723848,
    "lng": 128.2562913
  },
  {
    "name": "귀둔초등학교",
    "lat": 38.0170625,
    "lng": 128.3613539
  },
  {
    "name": "단계초등학교병설유치원",
    "lat": 37.3589835,
    "lng": 127.9363762
  },
  {
    "name": "북원초등학교병설유치원",
    "lat": 37.3432132,
    "lng": 127.9377619
  },
  {
    "name": "부론초등학교",
    "lat": 37.2078379,
    "lng": 127.7487288
  },
  {
    "name": "창림초등학교병설유치원",
    "lat": 37.49538,
    "lng": 128.0363481
  },
  {
    "name": "강릉오성학교",
    "lat": 37.778928,
    "lng": 128.931635
  },
  {
    "name": "유촌초등학교오음분교장",
    "lat": 38.0542839,
    "lng": 127.8219231
  },
  {
    "name": "갑천중학교",
    "lat": 37.5603878,
    "lng": 128.1138304
  },
  {
    "name": "남산초등학교",
    "lat": 37.6827255,
    "lng": 127.8779633
  },
  {
    "name": "모산초등학교",
    "lat": 37.7317539,
    "lng": 128.9013443
  },
  {
    "name": "신영초등학교",
    "lat": 37.9068823,
    "lng": 128.8218902
  },
  {
    "name": "신왕초등학교",
    "lat": 37.8533983,
    "lng": 128.7879114
  },
  {
    "name": "연곡초등학교",
    "lat": 37.8568118,
    "lng": 128.8292357
  },
  {
    "name": "왕산초등학교",
    "lat": 37.6734142,
    "lng": 128.8361436
  },
  {
    "name": "횡성고등학교",
    "lat": 37.4854026,
    "lng": 127.978543
  },
  {
    "name": "경포중학교",
    "lat": 37.7416625,
    "lng": 128.8997066
  },
  {
    "name": "관동중학교",
    "lat": 37.756965,
    "lng": 128.8798802
  },
  {
    "name": "동명중학교",
    "lat": 37.7771932,
    "lng": 128.9136382
  },
  {
    "name": "함백고등학교",
    "lat": 37.2155641,
    "lng": 128.6744153
  },
  {
    "name": "홍천고등학교",
    "lat": 37.6978104,
    "lng": 127.8918053
  },
  {
    "name": "양구여자고등학교",
    "lat": 38.1014917,
    "lng": 127.9814856
  },
  {
    "name": "양양고등학교",
    "lat": 38.0726777,
    "lng": 128.6162507
  },
  {
    "name": "미래고등학교",
    "lat": 37.3393255,
    "lng": 128.0068626
  },
  {
    "name": "민족사관고등학교",
    "lat": 37.4588684,
    "lng": 128.1456915
  },
  {
    "name": "사내고등학교",
    "lat": 38.064898,
    "lng": 127.5191823
  },
  {
    "name": "서석고등학교",
    "lat": 37.7099738,
    "lng": 128.1896947
  },
  {
    "name": "성수여자고등학교",
    "lat": 37.8802694,
    "lng": 127.7244946
  },
  {
    "name": "김화공업고등학교",
    "lat": 38.2428417,
    "lng": 127.4349752
  },
  {
    "name": "가곡고등학교",
    "lat": 37.1458582,
    "lng": 129.205583
  },
  {
    "name": "강릉중앙고등학교",
    "lat": 37.759149,
    "lng": 128.9135119
  },
  {
    "name": "주천초등학교",
    "lat": 37.2726269,
    "lng": 128.2675138
  },
  {
    "name": "원주중학교",
    "lat": 37.3368015,
    "lng": 127.9581302
  },
  {
    "name": "진광중학교",
    "lat": 37.3726056,
    "lng": 127.9365981
  },
  {
    "name": "귀래초등학교",
    "lat": 37.1692213,
    "lng": 127.8839242
  },
  {
    "name": "단계초등학교",
    "lat": 37.3589835,
    "lng": 127.9363762
  },
  {
    "name": "옥동초등학교",
    "lat": 37.1299011,
    "lng": 128.5699549
  },
  {
    "name": "주천중학교",
    "lat": 37.2761845,
    "lng": 128.2637312
  },
  {
    "name": "봉래초등학교",
    "lat": 37.1768254,
    "lng": 128.4757099
  },
  {
    "name": "석천중학교",
    "lat": 38.1014917,
    "lng": 127.9814856
  },
  {
    "name": "임당초등학교",
    "lat": 38.2010697,
    "lng": 128.0429901
  },
  {
    "name": "방산초등학교병설유치원",
    "lat": 38.2097352,
    "lng": 127.9439394
  },
  {
    "name": "안흥초등학교",
    "lat": 37.420686,
    "lng": 128.1642571
  },
  {
    "name": "정금초등학교",
    "lat": 37.5048891,
    "lng": 128.1048335
  },
  {
    "name": "두촌초등학교",
    "lat": 37.8678689,
    "lng": 128.0170855
  },
  {
    "name": "계촌초등학교병설유치원",
    "lat": 37.4527928,
    "lng": 128.3043858
  },
  {
    "name": "홍천중학교",
    "lat": 37.6978104,
    "lng": 127.8918053
  },
  {
    "name": "횡계초등학교",
    "lat": 37.6760066,
    "lng": 128.7112642
  },
  {
    "name": "대관령초등학교",
    "lat": 37.6890974,
    "lng": 128.6935286
  },
  {
    "name": "미탄초등학교",
    "lat": 37.3419955,
    "lng": 128.5003845
  },
  {
    "name": "통리초등학교",
    "lat": 37.1662111,
    "lng": 129.0356554
  },
  {
    "name": "남산초등학교병설유치원",
    "lat": 37.792912,
    "lng": 127.6457178
  },
  {
    "name": "조양초등학교",
    "lat": 37.7512064,
    "lng": 127.7956208
  },
  {
    "name": "호반초등학교",
    "lat": 37.8745592,
    "lng": 127.7607376
  },
  {
    "name": "봉의중학교",
    "lat": 37.8778089,
    "lng": 127.7439583
  },
  {
    "name": "동춘천초등학교",
    "lat": 37.8771409,
    "lng": 127.7428171
  },
  {
    "name": "만천초등학교",
    "lat": 37.8842472,
    "lng": 127.7578974
  },
  {
    "name": "정선고등학교",
    "lat": 37.3782007,
    "lng": 128.6616765
  },
  {
    "name": "주문진고등학교",
    "lat": 37.8811351,
    "lng": 128.8301372
  },
  {
    "name": "신림초등학교",
    "lat": 37.231349,
    "lng": 128.0784527
  },
  {
    "name": "일산초등학교",
    "lat": 37.3466822,
    "lng": 127.9422179
  },
  {
    "name": "둔내초등학교",
    "lat": 37.5126523,
    "lng": 128.2159954
  },
  {
    "name": "성남초등학교",
    "lat": 37.4645712,
    "lng": 127.9726654
  },
  {
    "name": "원천초등학교병설유치원",
    "lat": 38.0592593,
    "lng": 127.6664623
  },
  {
    "name": "강림초등학교",
    "lat": 37.3582695,
    "lng": 128.1201059
  },
  {
    "name": "상서중학교",
    "lat": 38.1567573,
    "lng": 127.6505211
  },
  {
    "name": "원당초등학교",
    "lat": 37.796201,
    "lng": 128.4019781
  },
  {
    "name": "홍천초등학교",
    "lat": 37.6929591,
    "lng": 127.884287
  },
  {
    "name": "내촌초등학교",
    "lat": 37.8159283,
    "lng": 128.0856641
  },
  {
    "name": "면온초등학교",
    "lat": 37.5649404,
    "lng": 128.349834
  },
  {
    "name": "계촌초등학교",
    "lat": 37.4527928,
    "lng": 128.3043858
  },
  {
    "name": "오동초등학교병설유치원",
    "lat": 37.9516488,
    "lng": 127.7581272
  },
  {
    "name": "미동초등학교",
    "lat": 37.2561897,
    "lng": 128.9837155
  },
  {
    "name": "상장초등학교",
    "lat": 37.1371815,
    "lng": 129.0011426
  },
  {
    "name": "홍천여자고등학교",
    "lat": 37.6915527,
    "lng": 127.8814652
  },
  {
    "name": "여량고등학교",
    "lat": 37.4693109,
    "lng": 128.7267135
  },
  {
    "name": "유봉여자고등학교",
    "lat": 37.8845115,
    "lng": 127.7348529
  },
  {
    "name": "장성여자고등학교",
    "lat": 37.125739,
    "lng": 129.0055478
  },
  {
    "name": "정선정보공업고등학교",
    "lat": 37.3799557,
    "lng": 128.6475562
  },
  {
    "name": "상지대관령고등학교",
    "lat": 37.6720049,
    "lng": 128.7048908
  },
  {
    "name": "성림초등학교",
    "lat": 37.8522449,
    "lng": 127.7403404
  },
  {
    "name": "평창중학교",
    "lat": 37.3691054,
    "lng": 128.3984755
  },
  {
    "name": "해안중학교",
    "lat": 38.2838994,
    "lng": 128.1359371
  },
  {
    "name": "해안초등학교병설유치원",
    "lat": 38.2896544,
    "lng": 128.1378277
  },
  {
    "name": "봉래중학교",
    "lat": 37.1819091,
    "lng": 128.4855968
  },
  {
    "name": "남애초등학교병설유치원",
    "lat": 37.9462645,
    "lng": 128.7810444
  },
  {
    "name": "대암중학교",
    "lat": 38.1829728,
    "lng": 128.0362439
  },
  {
    "name": "속초해랑중학교",
    "lat": 38.2069424,
    "lng": 128.5848698
  },
  {
    "name": "설악중학교",
    "lat": 38.2063779,
    "lng": 128.5783549
  },
  {
    "name": "삼척중앙초등학교",
    "lat": 37.4664068,
    "lng": 129.1616803
  },
  {
    "name": "강릉정보공업고등학교",
    "lat": 37.8800961,
    "lng": 128.8307431
  },
  {
    "name": "프렌비숲유치원",
    "lat": 37.7816536,
    "lng": 128.8777666
  },
  {
    "name": "창호초등학교",
    "lat": 37.5583357,
    "lng": 129.1082615
  },
  {
    "name": "남호초등학교병설유치원",
    "lat": 37.5342016,
    "lng": 129.1129804
  },
  {
    "name": "인흥초등학교",
    "lat": 38.2367133,
    "lng": 128.5506843
  },
  {
    "name": "대진중학교",
    "lat": 38.4841245,
    "lng": 128.4329446
  },
  {
    "name": "중앙초등학교",
    "lat": 37.7580086,
    "lng": 128.9232198
  },
  {
    "name": "강릉유치원",
    "lat": 37.7927003,
    "lng": 128.9163749
  },
  {
    "name": "황지정보산업고등학교",
    "lat": 37.1683378,
    "lng": 128.9881016
  },
  {
    "name": "왕산중학교",
    "lat": 37.6726634,
    "lng": 128.836911
  },
  {
    "name": "남춘천초등학교",
    "lat": 37.8610314,
    "lng": 127.7220638
  },
  {
    "name": "동부초등학교",
    "lat": 37.8708157,
    "lng": 127.7547718
  },
  {
    "name": "사북중학교",
    "lat": 37.2280446,
    "lng": 128.8278646
  },
  {
    "name": "남평초등학교",
    "lat": 37.4313492,
    "lng": 128.6633687
  },
  {
    "name": "서화초등학교",
    "lat": 38.2296712,
    "lng": 128.2084784
  },
  {
    "name": "서화중학교",
    "lat": 38.2215284,
    "lng": 128.2095391
  },
  {
    "name": "동화나라유치원",
    "lat": 37.3494441,
    "lng": 127.9328375
  },
  {
    "name": "성불유치원",
    "lat": 37.3316312,
    "lng": 127.9465524
  },
  {
    "name": "둔둔초등학교",
    "lat": 37.4463685,
    "lng": 127.9790738
  },
  {
    "name": "문막초등학교",
    "lat": 37.3125513,
    "lng": 127.8208323
  },
  {
    "name": "원주여자중학교",
    "lat": 37.3393584,
    "lng": 127.9449794
  },
  {
    "name": "영월초등학교",
    "lat": 37.181951,
    "lng": 128.4687341
  },
  {
    "name": "영월중학교",
    "lat": 37.1910454,
    "lng": 128.4721212
  },
  {
    "name": "성북초등학교",
    "lat": 37.490038,
    "lng": 127.9920816
  },
  {
    "name": "창림초등학교",
    "lat": 37.49538,
    "lng": 128.0363481
  },
  {
    "name": "대곡초등학교",
    "lat": 37.6534798,
    "lng": 127.6176319
  },
  {
    "name": "미탄초등학교병설유치원",
    "lat": 37.3419955,
    "lng": 128.5003845
  },
  {
    "name": "팔렬중학교",
    "lat": 37.7833493,
    "lng": 128.1507556
  },
  {
    "name": "홍천여자중학교",
    "lat": 37.6974958,
    "lng": 127.9049437
  },
  {
    "name": "진부초등학교",
    "lat": 37.6397697,
    "lng": 128.5568407
  },
  {
    "name": "계촌중학교",
    "lat": 37.4527182,
    "lng": 128.3087443
  },
  {
    "name": "대관령중학교",
    "lat": 37.6730606,
    "lng": 128.6995462
  },
  {
    "name": "황지중학교",
    "lat": 37.1666052,
    "lng": 128.9879027
  },
  {
    "name": "삼성초등학교",
    "lat": 37.0974394,
    "lng": 129.0234168
  },
  {
    "name": "서상초등학교병설유치원",
    "lat": 37.9289573,
    "lng": 127.7072979
  },
  {
    "name": "송화초등학교병설유치원",
    "lat": 37.9875687,
    "lng": 127.7075365
  },
  {
    "name": "상동중학교",
    "lat": 37.1249772,
    "lng": 128.82161
  },
  {
    "name": "석정여자중학교",
    "lat": 37.1807313,
    "lng": 128.4586939
  },
  {
    "name": "설악초등학교병설유치원",
    "lat": 38.1638501,
    "lng": 128.5406741
  },
  {
    "name": "현북중학교",
    "lat": 38.0144502,
    "lng": 128.6942569
  },
  {
    "name": "남애초등학교",
    "lat": 37.9462645,
    "lng": 128.7810444
  },
  {
    "name": "흥전초등학교",
    "lat": 37.2145031,
    "lng": 129.043297
  },
  {
    "name": "삼척남초등학교",
    "lat": 37.423974,
    "lng": 129.1877954
  },
  {
    "name": "삼일중학교",
    "lat": 37.4327032,
    "lng": 129.1651638
  },
  {
    "name": "임원중학교",
    "lat": 37.2410342,
    "lng": 129.3370481
  },
  {
    "name": "동해초등학교",
    "lat": 37.511622,
    "lng": 129.1205726
  },
  {
    "name": "아야진초등학교",
    "lat": 38.2734589,
    "lng": 128.5495762
  },
  {
    "name": "동해중학교",
    "lat": 37.5434115,
    "lng": 129.0975708
  },
  {
    "name": "하랑중학교",
    "lat": 37.5597076,
    "lng": 129.1023781
  },
  {
    "name": "장성초등학교",
    "lat": 37.1024627,
    "lng": 129.0063758
  },
  {
    "name": "후평중학교",
    "lat": 37.8761875,
    "lng": 127.7484486
  },
  {
    "name": "가산초등학교",
    "lat": 37.9086068,
    "lng": 127.7823752
  },
  {
    "name": "신철원초등학교병설유치원",
    "lat": 38.1467195,
    "lng": 127.3055356
  },
  {
    "name": "근남초등학교",
    "lat": 38.2386983,
    "lng": 127.4704115
  },
  {
    "name": "서면초등학교",
    "lat": 38.1690047,
    "lng": 127.4164808
  },
  {
    "name": "여량중학교",
    "lat": 37.4693109,
    "lng": 128.7267135
  },
  {
    "name": "화동중학교",
    "lat": 37.3394901,
    "lng": 128.7871746
  },
  {
    "name": "부평초등학교",
    "lat": 37.9705428,
    "lng": 128.0836496
  },
  {
    "name": "상남초등학교",
    "lat": 37.8731037,
    "lng": 128.2606793
  },
  {
    "name": "둔둔초등학교병설유치원",
    "lat": 37.4463685,
    "lng": 127.9790738
  },
  {
    "name": "서원주초등학교",
    "lat": 37.3269866,
    "lng": 127.9398654
  },
  {
    "name": "신평초등학교",
    "lat": 37.3845197,
    "lng": 127.8923137
  },
  {
    "name": "갑천고등학교",
    "lat": 37.5603878,
    "lng": 128.1138304
  },
  {
    "name": "사북고등학교",
    "lat": 37.2280446,
    "lng": 128.8278646
  },
  {
    "name": "상지여자고등학교",
    "lat": 37.3400731,
    "lng": 127.9605562
  },
  {
    "name": "마차고등학교",
    "lat": 37.2563628,
    "lng": 128.4525588
  },
  {
    "name": "간동고등학교",
    "lat": 38.0562741,
    "lng": 127.7924116
  },
  {
    "name": "용대초등학교",
    "lat": 38.1875559,
    "lng": 128.3246011
  },
  {
    "name": "월학초등학교",
    "lat": 38.1709633,
    "lng": 128.2089844
  },
  {
    "name": "인제초등학교",
    "lat": 38.0757612,
    "lng": 128.1790624
  },
  {
    "name": "평창초등학교",
    "lat": 37.3704283,
    "lng": 128.3922347
  },
  {
    "name": "황지초등학교",
    "lat": 37.1638444,
    "lng": 128.9903149
  },
  {
    "name": "큰나무유치원",
    "lat": 37.3848878,
    "lng": 127.9478791
  },
  {
    "name": "단구초등학교병설유치원",
    "lat": 37.3224415,
    "lng": 127.9639662
  },
  {
    "name": "만종초등학교",
    "lat": 37.3553051,
    "lng": 127.9015707
  },
  {
    "name": "치악중학교",
    "lat": 37.3535413,
    "lng": 127.930943
  },
  {
    "name": "호저중학교",
    "lat": 37.4176898,
    "lng": 127.9222822
  },
  {
    "name": "마차초등학교",
    "lat": 37.2574806,
    "lng": 128.4534519
  },
  {
    "name": "방산초등학교",
    "lat": 38.2097352,
    "lng": 127.9439394
  },
  {
    "name": "비봉초등학교",
    "lat": 38.1106071,
    "lng": 127.9877072
  },
  {
    "name": "녹전중학교",
    "lat": 37.8882114,
    "lng": 128.8271525
  },
  {
    "name": "가온유치원",
    "lat": 37.7560669,
    "lng": 128.8793222
  },
  {
    "name": "장원초등학교",
    "lat": 37.2280607,
    "lng": 129.0550653
  },
  {
    "name": "정라초등학교",
    "lat": 37.4453088,
    "lng": 129.1764309
  },
  {
    "name": "명덕초등학교",
    "lat": 37.6208224,
    "lng": 127.7679677
  },
  {
    "name": "삼생초등학교",
    "lat": 37.7005923,
    "lng": 128.2257924
  },
  {
    "name": "동화중학교",
    "lat": 37.6799111,
    "lng": 127.938011
  },
  {
    "name": "봉평초등학교",
    "lat": 37.6157745,
    "lng": 128.3813486
  },
  {
    "name": "천전초등학교병설유치원",
    "lat": 37.9273722,
    "lng": 127.745719
  },
  {
    "name": "철암초등학교",
    "lat": 37.1215722,
    "lng": 129.0433604
  },
  {
    "name": "태백초등학교",
    "lat": 37.1371815,
    "lng": 129.0011426
  },
  {
    "name": "당림초등학교병설유치원",
    "lat": 37.8376388,
    "lng": 127.6080266
  },
  {
    "name": "동내초등학교병설유치원",
    "lat": 37.8511982,
    "lng": 127.7661222
  },
  {
    "name": "지촌초등학교",
    "lat": 38.0379893,
    "lng": 127.6447507
  },
  {
    "name": "교동초등학교",
    "lat": 37.8808519,
    "lng": 127.7372461
  },
  {
    "name": "당림초등학교",
    "lat": 37.8376388,
    "lng": 127.6080266
  },
  {
    "name": "근남초등학교병설유치원",
    "lat": 38.2386983,
    "lng": 127.4704115
  },
  {
    "name": "갈래초등학교병설유치원",
    "lat": 37.1950077,
    "lng": 128.8663929
  },
  {
    "name": "철원여자중학교",
    "lat": 38.2044937,
    "lng": 127.2101988
  },
  {
    "name": "예미초등학교운치분교장",
    "lat": 37.2698758,
    "lng": 128.6071774
  },
  {
    "name": "정선중학교",
    "lat": 37.3782007,
    "lng": 128.6616765
  },
  {
    "name": "고한초등학교",
    "lat": 37.2029284,
    "lng": 128.853234
  },
  {
    "name": "남선초등학교남창분교장",
    "lat": 37.3240934,
    "lng": 128.713322
  },
  {
    "name": "횡성초등학교",
    "lat": 37.4876699,
    "lng": 127.9798343
  },
  {
    "name": "강원명진학교",
    "lat": 37.8992046,
    "lng": 127.7349707
  },
  {
    "name": "춘천동원학교",
    "lat": 37.9309953,
    "lng": 127.7868539
  },
  {
    "name": "상승초등학교봉오분교장병설유치원",
    "lat": 38.1887267,
    "lng": 127.599966
  },
  {
    "name": "유촌초등학교병설유치원",
    "lat": 38.0553552,
    "lng": 127.7911686
  },
  {
    "name": "공근중학교",
    "lat": 37.5399954,
    "lng": 127.9623661
  },
  {
    "name": "우천중학교",
    "lat": 37.4684412,
    "lng": 128.049022
  },
  {
    "name": "갑천초등학교",
    "lat": 37.5574143,
    "lng": 128.1079915
  },
  {
    "name": "사내중학교",
    "lat": 38.064898,
    "lng": 127.5191823
  },
  {
    "name": "영동초등학교",
    "lat": 37.7599217,
    "lng": 128.8868472
  },
  {
    "name": "옥계초등학교",
    "lat": 37.6102712,
    "lng": 129.0350593
  },
  {
    "name": "운양초등학교",
    "lat": 37.8373557,
    "lng": 128.858532
  },
  {
    "name": "강동초등학교",
    "lat": 37.7252259,
    "lng": 128.962503
  },
  {
    "name": "교동초등학교",
    "lat": 37.7670048,
    "lng": 128.8930216
  },
  {
    "name": "화천고등학교",
    "lat": 38.0970197,
    "lng": 127.7064415
  },
  {
    "name": "한국항공고등학교",
    "lat": 37.0989284,
    "lng": 129.0206706
  },
  {
    "name": "강원생활과학고등학교",
    "lat": 37.6079042,
    "lng": 127.7698429
  },
  {
    "name": "양구고등학교",
    "lat": 38.1002987,
    "lng": 127.991474
  },
  {
    "name": "영월고등학교",
    "lat": 37.1910454,
    "lng": 128.4721212
  },
  {
    "name": "한국소방마이스터고등학교",
    "lat": 37.1894627,
    "lng": 128.4714437
  },
  {
    "name": "원주금융회계고등학교",
    "lat": 37.2084666,
    "lng": 127.7521723
  },
  {
    "name": "북원여자고등학교",
    "lat": 37.3547717,
    "lng": 127.9314068
  },
  {
    "name": "성수고등학교",
    "lat": 37.8802694,
    "lng": 127.7244946
  },
  {
    "name": "강원체육고등학교",
    "lat": 37.8574869,
    "lng": 127.7019193
  },
  {
    "name": "고성고등학교",
    "lat": 38.3784389,
    "lng": 128.4606254
  },
  {
    "name": "대성고등학교",
    "lat": 37.3281926,
    "lng": 127.9205561
  },
  {
    "name": "강원예술고등학교",
    "lat": 37.7226364,
    "lng": 128.8648907
  },
  {
    "name": "동해광희고등학교",
    "lat": 37.4904802,
    "lng": 129.1027214
  },
  {
    "name": "동해상업고등학교",
    "lat": 37.5439602,
    "lng": 129.094578
  },
  {
    "name": "강릉고등학교",
    "lat": 37.7884812,
    "lng": 128.9169173
  },
  {
    "name": "강릉명륜고등학교",
    "lat": 37.7632033,
    "lng": 128.8946225
  },
  {
    "name": "강원과학고등학교",
    "lat": 37.3437993,
    "lng": 127.9333308
  },
  {
    "name": "소야초등학교",
    "lat": 38.1994746,
    "lng": 128.5664291
  },
  {
    "name": "반계초등학교병설유치원",
    "lat": 37.2917615,
    "lng": 127.7908924
  },
  {
    "name": "문막성모유치원",
    "lat": 37.3104725,
    "lng": 127.8185163
  },
  {
    "name": "비두초등학교병설유치원",
    "lat": 37.2612367,
    "lng": 127.8349355
  },
  {
    "name": "매지초등학교",
    "lat": 37.2686315,
    "lng": 127.9063368
  },
  {
    "name": "서곡초등학교",
    "lat": 37.2979979,
    "lng": 127.9387312
  },
  {
    "name": "관설초등학교",
    "lat": 37.3086964,
    "lng": 127.9762776
  },
  {
    "name": "교동초등학교",
    "lat": 37.3384428,
    "lng": 127.9471864
  },
  {
    "name": "교학초등학교",
    "lat": 37.4354537,
    "lng": 128.0555379
  },
  {
    "name": "청령포초등학교",
    "lat": 37.1805105,
    "lng": 128.4414799
  },
  {
    "name": "비봉초등학교병설유치원",
    "lat": 38.1106071,
    "lng": 127.9877072
  },
  {
    "name": "신동초등학교",
    "lat": 37.9302706,
    "lng": 127.722485
  },
  {
    "name": "후평초등학교",
    "lat": 37.8827542,
    "lng": 127.744198
  },
  {
    "name": "우석중학교",
    "lat": 37.8661103,
    "lng": 127.7552192
  },
  {
    "name": "유봉여자중학교",
    "lat": 37.8845115,
    "lng": 127.7348529
  },
  {
    "name": "미로중학교",
    "lat": 37.4109878,
    "lng": 129.1045204
  },
  {
    "name": "원덕중학교",
    "lat": 37.1783682,
    "lng": 129.3322558
  },
  {
    "name": "북삼초등학교",
    "lat": 37.495713,
    "lng": 129.1009331
  },
  {
    "name": "송정초등학교",
    "lat": 37.4944235,
    "lng": 129.1228919
  },
  {
    "name": "동해삼육초등학교",
    "lat": 37.5290323,
    "lng": 129.1099341
  },
  {
    "name": "소화유치원",
    "lat": 37.7543793,
    "lng": 128.8924448
  },
  {
    "name": "고성중학교",
    "lat": 38.3784389,
    "lng": 128.4606254
  },
  {
    "name": "주영초등학교",
    "lat": 37.8977443,
    "lng": 128.8269361
  },
  {
    "name": "정동초등학교",
    "lat": 37.6872615,
    "lng": 129.0336588
  },
  {
    "name": "송양초등학교",
    "lat": 37.7588166,
    "lng": 128.8473563
  },
  {
    "name": "율곡중학교",
    "lat": 37.7706008,
    "lng": 128.8884069
  },
  {
    "name": "주문진중학교",
    "lat": 37.879491,
    "lng": 128.8282062
  },
  {
    "name": "남강초등학교",
    "lat": 37.7674671,
    "lng": 128.9148457
  },
  {
    "name": "진광고등학교",
    "lat": 37.3726056,
    "lng": 127.9365981
  },
  {
    "name": "철원고등학교",
    "lat": 38.2106449,
    "lng": 127.2112866
  },
  {
    "name": "철원여자고등학교",
    "lat": 38.2044937,
    "lng": 127.2101988
  },
  {
    "name": "영서고등학교",
    "lat": 37.3137001,
    "lng": 127.980452
  },
  {
    "name": "육민관고등학교",
    "lat": 37.3078695,
    "lng": 127.920761
  },
  {
    "name": "인제고등학교",
    "lat": 38.0733266,
    "lng": 128.1784568
  },
  {
    "name": "춘천계성학교",
    "lat": 37.8713249,
    "lng": 127.7518611
  },
  {
    "name": "유현초등학교",
    "lat": 37.52653,
    "lng": 127.8751569
  },
  {
    "name": "사내초등학교",
    "lat": 38.06924,
    "lng": 127.5204062
  },
  {
    "name": "실내초등학교",
    "lat": 38.120956,
    "lng": 127.5317225
  },
  {
    "name": "광덕초등학교병설유치원",
    "lat": 38.0673088,
    "lng": 127.4946197
  },
  {
    "name": "다목초등학교병설유치원",
    "lat": 38.1757215,
    "lng": 127.5352621
  },
  {
    "name": "강림중학교",
    "lat": 37.363724,
    "lng": 128.1266867
  },
  {
    "name": "안흥중학교",
    "lat": 37.4124348,
    "lng": 128.1531263
  },
  {
    "name": "한서초등학교",
    "lat": 37.6931503,
    "lng": 127.6026253
  },
  {
    "name": "속사초등학교",
    "lat": 37.6461534,
    "lng": 128.4920573
  },
  {
    "name": "율곡초등학교",
    "lat": 37.766077,
    "lng": 128.8817602
  },
  {
    "name": "강릉해람중학교",
    "lat": 37.7521843,
    "lng": 128.8896078
  },
  {
    "name": "사천중학교",
    "lat": 37.828046,
    "lng": 128.8456869
  },
  {
    "name": "옥계중학교",
    "lat": 37.6020367,
    "lng": 129.0335422
  },
  {
    "name": "춘천기계공업고등학교",
    "lat": 37.8914589,
    "lng": 127.7472699
  },
  {
    "name": "춘천한샘고등학교",
    "lat": 37.9270848,
    "lng": 127.7507336
  },
  {
    "name": "청일중학교",
    "lat": 37.5822793,
    "lng": 128.1468469
  },
  {
    "name": "안흥고등학교",
    "lat": 37.4124348,
    "lng": 128.1531263
  },
  {
    "name": "삼척고등학교",
    "lat": 37.4459992,
    "lng": 129.1650998
  },
  {
    "name": "삼척여자고등학교",
    "lat": 37.4374559,
    "lng": 129.1658276
  },
  {
    "name": "경포고등학교",
    "lat": 37.7819394,
    "lng": 128.9169879
  },
  {
    "name": "강릉여자고등학교",
    "lat": 37.7589126,
    "lng": 128.9039982
  },
  {
    "name": "강원고등학교",
    "lat": 37.8960793,
    "lng": 127.7567195
  },
  {
    "name": "주문진초등학교삼덕분교장",
    "lat": 37.8785017,
    "lng": 128.7886115
  },
  {
    "name": "제일유치원",
    "lat": 37.3356972,
    "lng": 127.9396627
  },
  {
    "name": "내성초등학교",
    "lat": 37.1899815,
    "lng": 128.4746237
  },
  {
    "name": "녹전초등학교",
    "lat": 37.1477353,
    "lng": 128.6815277
  },
  {
    "name": "한전초등학교",
    "lat": 38.1491749,
    "lng": 128.0162955
  },
  {
    "name": "원당초등학교병설유치원",
    "lat": 38.1879298,
    "lng": 128.0438399
  },
  {
    "name": "강현초등학교병설유치원",
    "lat": 38.1493101,
    "lng": 128.6040208
  },
  {
    "name": "회룡초등학교",
    "lat": 38.135035,
    "lng": 128.5768233
  },
  {
    "name": "양양중학교",
    "lat": 38.0728976,
    "lng": 128.6132369
  },
  {
    "name": "조산초등학교",
    "lat": 38.1134549,
    "lng": 128.632498
  },
  {
    "name": "호산초등학교",
    "lat": 37.177941,
    "lng": 129.3347059
  },
  {
    "name": "설온중학교",
    "lat": 38.1981654,
    "lng": 128.567622
  },
  {
    "name": "청아중학교",
    "lat": 37.4451079,
    "lng": 129.1600833
  },
  {
    "name": "맹방초등학교",
    "lat": 37.3414433,
    "lng": 129.2552153
  },
  {
    "name": "동해중앙초등학교",
    "lat": 37.5252946,
    "lng": 129.1090625
  },
  {
    "name": "도학초등학교",
    "lat": 38.2724867,
    "lng": 128.5017079
  },
  {
    "name": "동해광희중학교",
    "lat": 37.4904802,
    "lng": 129.1027214
  },
  {
    "name": "예람중학교",
    "lat": 37.4805395,
    "lng": 129.1236998
  },
  {
    "name": "좋은유치원",
    "lat": 37.7405697,
    "lng": 128.896165
  },
  {
    "name": "사천초등학교병설유치원",
    "lat": 37.8219231,
    "lng": 128.8506474
  },
  {
    "name": "명주초등학교",
    "lat": 37.7422996,
    "lng": 128.8781731
  },
  {
    "name": "옥천초등학교",
    "lat": 37.7561704,
    "lng": 128.903136
  },
  {
    "name": "송화초등학교",
    "lat": 37.9875687,
    "lng": 127.7075365
  },
  {
    "name": "천전초등학교",
    "lat": 37.9273722,
    "lng": 127.745719
  },
  {
    "name": "봄내초등학교",
    "lat": 37.8558262,
    "lng": 127.7419394
  },
  {
    "name": "남춘천중학교",
    "lat": 37.8599652,
    "lng": 127.7213801
  },
  {
    "name": "김화여자중학교",
    "lat": 38.2434137,
    "lng": 127.4335217
  },
  {
    "name": "김화초등학교",
    "lat": 38.2525573,
    "lng": 127.4145356
  },
  {
    "name": "북평초등학교",
    "lat": 37.4545672,
    "lng": 128.6740674
  },
  {
    "name": "증산초등학교",
    "lat": 37.2542386,
    "lng": 128.7810785
  },
  {
    "name": "화동초등학교",
    "lat": 37.3386969,
    "lng": 128.7874599
  },
  {
    "name": "만종초등학교병설유치원",
    "lat": 37.3553051,
    "lng": 127.9015707
  },
  {
    "name": "명륜초등학교병설유치원",
    "lat": 37.3421333,
    "lng": 127.9586006
  },
  {
    "name": "장양초등학교",
    "lat": 37.3984696,
    "lng": 127.9543914
  },
  {
    "name": "태장초등학교",
    "lat": 37.3761827,
    "lng": 127.9514057
  },
  {
    "name": "평원초등학교",
    "lat": 37.35,
    "lng": 127.9311065
  },
  {
    "name": "황둔초등학교",
    "lat": 37.2614255,
    "lng": 128.1864294
  },
  {
    "name": "북원중학교",
    "lat": 37.3863566,
    "lng": 127.9529237
  },
  {
    "name": "상지여자중학교",
    "lat": 37.3400731,
    "lng": 127.9605562
  },
  {
    "name": "춘당초등학교",
    "lat": 37.6302239,
    "lng": 128.145718
  },
  {
    "name": "공근초등학교",
    "lat": 37.5333768,
    "lng": 127.9610665
  },
  {
    "name": "안흥초등학교덕천분교장",
    "lat": 37.4645549,
    "lng": 128.1541413
  },
  {
    "name": "산양초등학교",
    "lat": 38.1982251,
    "lng": 127.6390683
  },
  {
    "name": "풍산초등학교",
    "lat": 38.1489313,
    "lng": 127.775821
  },
  {
    "name": "사내초등학교병설유치원",
    "lat": 38.06924,
    "lng": 127.5204062
  },
  {
    "name": "매산초등학교",
    "lat": 37.590836,
    "lng": 127.8461341
  },
  {
    "name": "진부중학교",
    "lat": 37.6354535,
    "lng": 128.5525332
  },
  {
    "name": "추곡초등학교병설유치원",
    "lat": 38.024516,
    "lng": 127.882324
  },
  {
    "name": "함태초등학교",
    "lat": 37.1385762,
    "lng": 128.9767287
  },
  {
    "name": "광판초등학교병설유치원",
    "lat": 37.7306328,
    "lng": 127.6994649
  },
  {
    "name": "봉의초등학교병설유치원",
    "lat": 37.8758495,
    "lng": 127.7295195
  },
  {
    "name": "소양초등학교병설유치원",
    "lat": 37.9047065,
    "lng": 127.7399056
  },
  {
    "name": "소양초등학교",
    "lat": 37.9047065,
    "lng": 127.7399056
  },
  {
    "name": "교동초등학교",
    "lat": 38.2030581,
    "lng": 128.5744725
  },
  {
    "name": "대포초등학교",
    "lat": 38.1738714,
    "lng": 128.6036211
  },
  {
    "name": "삼척초등학교",
    "lat": 37.4494828,
    "lng": 129.1668204
  },
  {
    "name": "하장초등학교",
    "lat": 37.3480934,
    "lng": 128.9446121
  },
  {
    "name": "동해삼육중학교",
    "lat": 37.5290323,
    "lng": 129.1099341
  },
  {
    "name": "간성초등학교",
    "lat": 38.3774704,
    "lng": 128.4692678
  },
  {
    "name": "포남초등학교",
    "lat": 37.7728106,
    "lng": 128.9059644
  },
  {
    "name": "노암초등학교",
    "lat": 37.741727,
    "lng": 128.9019561
  },
  {
    "name": "동명초등학교",
    "lat": 37.7751913,
    "lng": 128.9288503
  },
  {
    "name": "함태중학교",
    "lat": 37.1456781,
    "lng": 128.9867107
  },
  {
    "name": "동점초등학교",
    "lat": 37.1004512,
    "lng": 129.0502873
  },
  {
    "name": "신동초등학교병설유치원",
    "lat": 37.9302706,
    "lng": 127.722485
  },
  {
    "name": "춘성중학교",
    "lat": 37.9272543,
    "lng": 127.7491106
  },
  {
    "name": "봉의초등학교",
    "lat": 37.8758495,
    "lng": 127.7295195
  },
  {
    "name": "김화초등학교병설유치원",
    "lat": 38.2525573,
    "lng": 127.4145356
  },
  {
    "name": "와수초등학교병설유치원",
    "lat": 38.2355599,
    "lng": 127.4340874
  },
  {
    "name": "강서중학교",
    "lat": 37.9067129,
    "lng": 127.7011995
  },
  {
    "name": "신철원중학교",
    "lat": 38.1464212,
    "lng": 127.3040092
  },
  {
    "name": "봉양초등학교",
    "lat": 37.3866213,
    "lng": 128.6694824
  },
  {
    "name": "정선초등학교",
    "lat": 37.3817099,
    "lng": 128.6594402
  },
  {
    "name": "고한중학교",
    "lat": 37.2064002,
    "lng": 128.852272
  },
  {
    "name": "함백중학교",
    "lat": 37.2155641,
    "lng": 128.6744153
  },
  {
    "name": "남선초등학교",
    "lat": 37.2687799,
    "lng": 128.741209
  },
  {
    "name": "어론초등학교",
    "lat": 37.977418,
    "lng": 128.0962795
  },
  {
    "name": "방산중학교",
    "lat": 38.2054932,
    "lng": 127.9384117
  },
  {
    "name": "해안초등학교",
    "lat": 38.2896544,
    "lng": 128.1378277
  },
  {
    "name": "동광산업과학고등학교",
    "lat": 38.2945102,
    "lng": 128.5427033
  },
  {
    "name": "내대초등학교병설유치원",
    "lat": 38.2064313,
    "lng": 127.2981903
  },
  {
    "name": "용암초등학교병설유치원",
    "lat": 38.0889159,
    "lng": 127.6995416
  },
  {
    "name": "이화유치원",
    "lat": 37.3247128,
    "lng": 127.9431898
  },
  {
    "name": "가람유치원",
    "lat": 37.8571897,
    "lng": 127.7258877
  },
  {
    "name": "구곡초등학교병설유치원",
    "lat": 37.3250972,
    "lng": 127.9527995
  },
  {
    "name": "단관초등학교병설유치원",
    "lat": 37.3174073,
    "lng": 127.9637764
  },
  {
    "name": "새봄유치원",
    "lat": 37.875647,
    "lng": 127.7227832
  },
  {
    "name": "성원유치원",
    "lat": 37.7438813,
    "lng": 128.8775331
  },
  {
    "name": "영지유치원",
    "lat": 37.3211244,
    "lng": 127.9558281
  },
  {
    "name": "강원애니고등학교",
    "lat": 37.9060614,
    "lng": 127.7006543
  },
  {
    "name": "반곡초등학교",
    "lat": 37.3373966,
    "lng": 127.9732862
  },
  {
    "name": "반곡중학교",
    "lat": 37.3362214,
    "lng": 127.9731261
  },
  {
    "name": "무실초등학교병설유치원",
    "lat": 37.3349735,
    "lng": 127.9218815
  },
  {
    "name": "자연유치원",
    "lat": 37.3375516,
    "lng": 127.9201825
  },
  {
    "name": "강원외국어고등학교",
    "lat": 38.1200875,
    "lng": 127.9904845
  },
  {
    "name": "만대초등학교",
    "lat": 37.3392877,
    "lng": 127.9205174
  },
  {
    "name": "버들초등학교",
    "lat": 37.3202055,
    "lng": 127.9863521
  },
  {
    "name": "문막초등학교병설유치원",
    "lat": 37.3125513,
    "lng": 127.8208323
  },
  {
    "name": "태사랑유치원",
    "lat": 37.1371815,
    "lng": 129.0011426
  },
  {
    "name": "미동초등학교병설유치원",
    "lat": 37.2561897,
    "lng": 128.9837155
  },
  {
    "name": "한강유치원",
    "lat": 37.3382661,
    "lng": 127.9580007
  },
  {
    "name": "황둔중학교",
    "lat": 37.2624161,
    "lng": 128.1873701
  },
  {
    "name": "단구초등학교",
    "lat": 37.3224415,
    "lng": 127.9639662
  },
  {
    "name": "상승초등학교병설유치원",
    "lat": 38.1572685,
    "lng": 127.6498139
  },
  {
    "name": "태봉초등학교병설유치원",
    "lat": 37.3860597,
    "lng": 127.9563969
  },
  {
    "name": "단구중학교",
    "lat": 37.3206248,
    "lng": 127.9566485
  },
  {
    "name": "동화초등학교",
    "lat": 37.3275258,
    "lng": 127.8288363
  },
  {
    "name": "학성유치원",
    "lat": 37.3545051,
    "lng": 127.9499483
  },
  {
    "name": "태백라온학교",
    "lat": 37.0925181,
    "lng": 128.9940794
  },
  {
    "name": "강원체육중학교",
    "lat": 37.8574869,
    "lng": 127.7019193
  },
  {
    "name": "단관초등학교",
    "lat": 37.3174073,
    "lng": 127.9637764
  },
  {
    "name": "성원초등학교",
    "lat": 37.8482996,
    "lng": 127.7445839
  },
  {
    "name": "구곡초등학교",
    "lat": 37.3250972,
    "lng": 127.9527995
  },
  {
    "name": "대룡중학교",
    "lat": 37.8473288,
    "lng": 127.7443076
  },
  {
    "name": "태장중학교",
    "lat": 37.3576805,
    "lng": 127.9596431
  },
  {
    "name": "솔올중학교",
    "lat": 37.770878,
    "lng": 128.8797952
  },
  {
    "name": "다인유치원",
    "lat": 37.7600909,
    "lng": 128.9293908
  },
  {
    "name": "반계초등학교",
    "lat": 37.2917615,
    "lng": 127.7908924
  },
  {
    "name": "호저초등학교",
    "lat": 37.411556,
    "lng": 127.9261896
  },
  {
    "name": "화계초등학교",
    "lat": 37.7106864,
    "lng": 127.8483004
  },
  {
    "name": "내대초등학교",
    "lat": 38.2064313,
    "lng": 127.2981903
  },
  {
    "name": "청양초등학교",
    "lat": 38.245489,
    "lng": 127.3795747
  },
  {
    "name": "옥동중학교",
    "lat": 37.1282436,
    "lng": 128.5705372
  },
  {
    "name": "연당중학교",
    "lat": 37.188668,
    "lng": 128.4075927
  },
  {
    "name": "미탄중학교",
    "lat": 37.341928,
    "lng": 128.4973207
  },
  {
    "name": "대화중학교",
    "lat": 37.4928927,
    "lng": 128.4599363
  },
  {
    "name": "봉평중학교",
    "lat": 37.6176893,
    "lng": 128.3812354
  },
  {
    "name": "지촌초등학교지암분교장병설유치원",
    "lat": 37.9811303,
    "lng": 127.6071198
  },
  {
    "name": "남원주초등학교",
    "lat": 37.3225063,
    "lng": 127.9510099
  },
  {
    "name": "대진초등학교명파분교장",
    "lat": 38.541622,
    "lng": 128.4011521
  },
  {
    "name": "원주청원학교",
    "lat": 37.3542431,
    "lng": 127.9295209
  },
  {
    "name": "원주대성중학교",
    "lat": 37.3281926,
    "lng": 127.9205561
  },
  {
    "name": "구송초등학교",
    "lat": 37.738478,
    "lng": 127.9390565
  },
  {
    "name": "석정여자고등학교",
    "lat": 37.1807313,
    "lng": 128.4586939
  },
  {
    "name": "정선초등학교가수분교장",
    "lat": 37.3146831,
    "lng": 128.62771
  },
  {
    "name": "북평초등학교",
    "lat": 37.4821904,
    "lng": 129.1244152
  },
  {
    "name": "철암중학교",
    "lat": 37.1253236,
    "lng": 129.0447269
  },
  {
    "name": "동해삼육고등학교",
    "lat": 37.5290323,
    "lng": 129.1099341
  },
  {
    "name": "구송초등학교병설유치원",
    "lat": 37.738478,
    "lng": 127.9390565
  },
  {
    "name": "흥업초등학교",
    "lat": 37.3071789,
    "lng": 127.9094027
  },
  {
    "name": "온의유치원",
    "lat": 37.8682742,
    "lng": 127.7111457
  },
  {
    "name": "프라임상상유치원",
    "lat": 37.3230557,
    "lng": 127.9904044
  },
  {
    "name": "솔샘초등학교",
    "lat": 37.3300399,
    "lng": 127.9293898
  },
  {
    "name": "낙산유치원",
    "lat": 38.072633,
    "lng": 128.6185964
  },
  {
    "name": "우천초등학교",
    "lat": 37.4612328,
    "lng": 128.0620998
  },
  {
    "name": "임원초등학교",
    "lat": 37.2356768,
    "lng": 129.3418551
  },
  {
    "name": "예지유치원",
    "lat": 37.3150681,
    "lng": 127.9571124
  },
  {
    "name": "강현중학교",
    "lat": 38.1498982,
    "lng": 128.6019096
  },
  {
    "name": "대화고등학교",
    "lat": 37.4928927,
    "lng": 128.4599363
  },
  {
    "name": "예그랑유치원",
    "lat": 37.342534,
    "lng": 127.9649584
  },
  {
    "name": "샘마루초등학교",
    "lat": 37.379207,
    "lng": 127.8710528
  },
  {
    "name": "퇴계초등학교",
    "lat": 37.8561756,
    "lng": 127.731984
  },
  {
    "name": "퇴계중학교",
    "lat": 37.8561756,
    "lng": 127.731984
  },
  {
    "name": "동송초등학교",
    "lat": 38.2033106,
    "lng": 127.2167949
  },
  {
    "name": "동해해솔학교",
    "lat": 37.5376508,
    "lng": 129.1101629
  },
  {
    "name": "운산초등학교",
    "lat": 37.7296435,
    "lng": 128.9379895
  },
  {
    "name": "봉화산숲유치원",
    "lat": 37.3495034,
    "lng": 127.9199215
  },
  {
    "name": "푸른자연유치원",
    "lat": 37.3374422,
    "lng": 127.931848
  },
  {
    "name": "거진고등학교",
    "lat": 38.4404106,
    "lng": 128.4503335
  },
  {
    "name": "소초초등학교",
    "lat": 37.4176385,
    "lng": 128.0037005
  },
  {
    "name": "섬강초등학교",
    "lat": 37.3791141,
    "lng": 127.873982
  },
  {
    "name": "문막고등학교",
    "lat": 37.305127,
    "lng": 127.8149526
  },
  {
    "name": "한아름유치원",
    "lat": 37.3292919,
    "lng": 127.9542735
  },
  {
    "name": "원주유치원",
    "lat": 37.3475148,
    "lng": 127.9479826
  },
  {
    "name": "부안초등학교",
    "lat": 37.8766811,
    "lng": 127.7498928
  },
  {
    "name": "도계전산정보고등학교",
    "lat": 37.231248,
    "lng": 129.0487914
  },
  {
    "name": "춘천중학교",
    "lat": 37.8748965,
    "lng": 127.7193209
  },
  {
    "name": "서상초등학교",
    "lat": 37.9289573,
    "lng": 127.7072979
  },
  {
    "name": "성무유치원",
    "lat": 37.3403658,
    "lng": 128.0106015
  },
  {
    "name": "삼포초등학교",
    "lat": 37.7561177,
    "lng": 127.9757843
  },
  {
    "name": "실내초등학교병설유치원",
    "lat": 38.120956,
    "lng": 127.5317225
  },
  {
    "name": "풍산초등학교병설유치원",
    "lat": 38.1489313,
    "lng": 127.775821
  },
  {
    "name": "오안초등학교",
    "lat": 37.6612625,
    "lng": 127.8311854
  },
  {
    "name": "양덕중학교",
    "lat": 37.6079042,
    "lng": 127.7698429
  },
  {
    "name": "율전초등학교",
    "lat": 37.7495807,
    "lng": 128.3073974
  },
  {
    "name": "토성초등학교",
    "lat": 38.2419487,
    "lng": 127.3439336
  },
  {
    "name": "태서초등학교",
    "lat": 37.1371815,
    "lng": 129.0011426
  },
  {
    "name": "하장중학교",
    "lat": 37.3524074,
    "lng": 128.9351696
  },
  {
    "name": "한남초등학교",
    "lat": 38.0559236,
    "lng": 128.6072738
  },
  {
    "name": "한솔초등학교",
    "lat": 37.7741034,
    "lng": 128.9142356
  },
  {
    "name": "용하중학교",
    "lat": 38.1101499,
    "lng": 128.0397824
  },
  {
    "name": "원통초등학교",
    "lat": 38.1200986,
    "lng": 128.2004529
  },
  {
    "name": "육민관중학교",
    "lat": 37.3078695,
    "lng": 127.920761
  },
  {
    "name": "임계초등학교",
    "lat": 37.4962035,
    "lng": 128.8481811
  },
  {
    "name": "속초여자고등학교",
    "lat": 38.199461,
    "lng": 128.5692564
  },
  {
    "name": "성산초등학교",
    "lat": 37.7189439,
    "lng": 128.8331731
  },
  {
    "name": "창촌중학교",
    "lat": 37.8072176,
    "lng": 127.6351873
  },
  {
    "name": "강릉제일고등학교",
    "lat": 37.7597001,
    "lng": 128.8897845
  },
  {
    "name": "하슬라중학교",
    "lat": 37.7719964,
    "lng": 128.9071212
  },
  {
    "name": "용전중학교",
    "lat": 37.6085072,
    "lng": 128.4390927
  },
  {
    "name": "철암고등학교",
    "lat": 37.1253236,
    "lng": 129.0447269
  },
  {
    "name": "홍천농업고등학교",
    "lat": 37.7052563,
    "lng": 127.9112062
  },
  {
    "name": "지정중학교",
    "lat": 37.3658844,
    "lng": 127.8385688
  },
  {
    "name": "조양초등학교",
    "lat": 38.1883624,
    "lng": 128.5983686
  },
  {
    "name": "중앙초등학교",
    "lat": 37.352679,
    "lng": 127.9394972
  },
  {
    "name": "경포대초등학교",
    "lat": 37.8048287,
    "lng": 128.9007206
  },
  {
    "name": "오저초등학교",
    "lat": 37.1465604,
    "lng": 129.2066713
  },
  {
    "name": "금병초등학교",
    "lat": 37.8152516,
    "lng": 127.7144251
  },
  {
    "name": "문곡중학교",
    "lat": 37.2657755,
    "lng": 128.7397815
  },
  {
    "name": "상천초등학교병설유치원",
    "lat": 37.933607,
    "lng": 127.7853648
  },
  {
    "name": "유촌초등학교오음분교장병설유치원",
    "lat": 38.0542839,
    "lng": 127.8219231
  },
  {
    "name": "강원온라인학교",
    "lat": 37.3843185,
    "lng": 127.8604977
  },
  {
    "name": "황지중앙초등학교",
    "lat": 37.1371815,
    "lng": 129.0011426
  },
  {
    "name": "서부초등학교",
    "lat": 37.4393228,
    "lng": 129.1500915
  },
  {
    "name": "모곡초등학교",
    "lat": 37.677003,
    "lng": 127.6005786
  },
  {
    "name": "전인고등학교",
    "lat": 37.7874985,
    "lng": 127.7514507
  },
  {
    "name": "속초중학교",
    "lat": 38.2045692,
    "lng": 128.573843
  },
  {
    "name": "신철원초등학교",
    "lat": 38.1467195,
    "lng": 127.3055356
  },
  {
    "name": "태백중학교",
    "lat": 37.0970548,
    "lng": 129.0194192
  },
  {
    "name": "청일초등학교",
    "lat": 37.5815207,
    "lng": 128.145948
  },
  {
    "name": "협신초등학교",
    "lat": 37.5956655,
    "lng": 127.8188737
  },
  {
    "name": "여량초등학교",
    "lat": 37.4720387,
    "lng": 128.7279255
  },
  {
    "name": "도담유치원",
    "lat": 37.3308784,
    "lng": 127.9352127
  },
  {
    "name": "금빛유치원",
    "lat": 37.3358887,
    "lng": 127.9683702
  },
  {
    "name": "제이엠유치원",
    "lat": 37.7535162,
    "lng": 128.9208407
  },
  {
    "name": "동호초등학교",
    "lat": 37.5433614,
    "lng": 129.1009128
  },
  {
    "name": "송이유치원",
    "lat": 37.3275074,
    "lng": 127.9411138
  },
  {
    "name": "치악초등학교",
    "lat": 37.331865,
    "lng": 127.9392849
  },
  {
    "name": "신철원고등학교",
    "lat": 38.1464212,
    "lng": 127.3040092
  },
  {
    "name": "황지고등학교",
    "lat": 37.1605483,
    "lng": 128.9849398
  },
  {
    "name": "간동중학교",
    "lat": 38.0562741,
    "lng": 127.7924116
  },
  {
    "name": "청담유치원",
    "lat": 37.3144786,
    "lng": 127.952743
  },
  {
    "name": "봉의고등학교",
    "lat": 37.8729101,
    "lng": 127.7541791
  },
  {
    "name": "삼일고등학교",
    "lat": 37.4327032,
    "lng": 129.1651638
  },
  {
    "name": "황지고등학교부설방송통신고등학교",
    "lat": 37.1605483,
    "lng": 128.9849398
  },
  {
    "name": "광산초등학교",
    "lat": 38.3233062,
    "lng": 128.3861357
  },
  {
    "name": "북평중학교",
    "lat": 37.4980765,
    "lng": 129.1163615
  },
  {
    "name": "금대초등학교",
    "lat": 37.2892543,
    "lng": 127.9970328
  },
  {
    "name": "교동초등학교병설유치원",
    "lat": 37.3384428,
    "lng": 127.9471864
  },
  {
    "name": "소초초등학교병설유치원",
    "lat": 37.4176385,
    "lng": 128.0037005
  },
  {
    "name": "도성초등학교",
    "lat": 37.6708731,
    "lng": 128.5997839
  },
  {
    "name": "두촌중학교",
    "lat": 37.8717662,
    "lng": 128.026103
  },
  {
    "name": "서석초등학교",
    "lat": 37.7123097,
    "lng": 128.1881073
  },
  {
    "name": "무실초등학교",
    "lat": 37.3349735,
    "lng": 127.9218815
  },
  {
    "name": "스마트유치원",
    "lat": 37.3377245,
    "lng": 127.9342962
  },
  {
    "name": "중앙초등학교",
    "lat": 37.8790939,
    "lng": 127.7241732
  },
  {
    "name": "송포초등학교",
    "lat": 38.0893819,
    "lng": 128.6565482
  },
  {
    "name": "광덕초등학교",
    "lat": 38.0673088,
    "lng": 127.4946197
  },
  {
    "name": "원당초등학교",
    "lat": 38.1879298,
    "lng": 128.0438399
  },
  {
    "name": "대진초등학교",
    "lat": 38.4969874,
    "lng": 128.423588
  },
  {
    "name": "연당초등학교",
    "lat": 37.1862543,
    "lng": 128.4019535
  },
  {
    "name": "무릉초등학교",
    "lat": 37.2896463,
    "lng": 128.268016
  },
  {
    "name": "봉대초등학교",
    "lat": 37.3287194,
    "lng": 127.9835295
  },
  {
    "name": "신남초등학교",
    "lat": 37.8424384,
    "lng": 127.7119011
  },
  {
    "name": "양구초등학교",
    "lat": 38.1018662,
    "lng": 127.9907553
  },
  {
    "name": "손양초등학교",
    "lat": 38.0601087,
    "lng": 128.6430842
  },
  {
    "name": "북원초등학교",
    "lat": 37.3432132,
    "lng": 127.9377619
  },
  {
    "name": "구정초등학교",
    "lat": 37.7175832,
    "lng": 128.891388
  },
  {
    "name": "석사초등학교",
    "lat": 37.8577332,
    "lng": 127.7496167
  },
  {
    "name": "가정중학교",
    "lat": 37.7368235,
    "lng": 127.5775853
  },
  {
    "name": "그린나래유치원",
    "lat": 37.328078,
    "lng": 127.9833706
  },
  {
    "name": "세연중학교",
    "lat": 37.1779494,
    "lng": 128.9892885
  },
  {
    "name": "금산초등학교",
    "lat": 37.9035702,
    "lng": 127.6995368
  },
  {
    "name": "해밀학교",
    "lat": 37.6577863,
    "lng": 127.7679701
  },
  {
    "name": "성균관유치원",
    "lat": 37.3614085,
    "lng": 127.894747
  },
  {
    "name": "섬강중학교",
    "lat": 37.3795506,
    "lng": 127.8761022
  },
  {
    "name": "봉대가온학교",
    "lat": 37.3323456,
    "lng": 127.9939923
  },
  {
    "name": "유천초등학교",
    "lat": 37.7599842,
    "lng": 128.8711029
  },
  {
    "name": "치악초등학교병설유치원",
    "lat": 37.331865,
    "lng": 127.9392849
  },
  {
    "name": "삼화초등학교",
    "lat": 37.4851816,
    "lng": 129.068428
  },
  {
    "name": "인제중학교",
    "lat": 38.0722486,
    "lng": 128.1751166
  },
  {
    "name": "현천고등학교",
    "lat": 37.5435654,
    "lng": 128.2303512
  },
  {
    "name": "버들중학교",
    "lat": 37.3311868,
    "lng": 127.9893763
  },
  {
    "name": "상평초등학교오색분교장",
    "lat": 38.0742421,
    "lng": 128.4791095
  },
  {
    "name": "옥계초등학교금진분교장",
    "lat": 37.6346476,
    "lng": 129.0433632
  },
  {
    "name": "강릉중학교부설방송통신중학교",
    "lat": 37.7537254,
    "lng": 128.9092051
  },
  {
    "name": "장학초등학교병설유치원",
    "lat": 37.8951603,
    "lng": 127.7524785
  },
  {
    "name": "원주초등학교",
    "lat": 37.347353,
    "lng": 127.9586439
  },
  {
    "name": "영랑초등학교",
    "lat": 38.2178351,
    "lng": 128.5912393
  },
  {
    "name": "성덕초등학교",
    "lat": 37.7569357,
    "lng": 128.9103116
  },
  {
    "name": "삼척중학교",
    "lat": 37.4381674,
    "lng": 129.1433487
  },
  {
    "name": "거진초등학교",
    "lat": 38.4380131,
    "lng": 128.4453946
  },
  {
    "name": "남산초등학교",
    "lat": 37.792912,
    "lng": 127.6457178
  },
  {
    "name": "쌍룡중학교",
    "lat": 37.1780733,
    "lng": 128.3157264
  },
  {
    "name": "하늘빛유치원",
    "lat": 37.1564283,
    "lng": 128.974692
  },
  {
    "name": "서석초등학교청량분교장",
    "lat": 37.6883784,
    "lng": 128.1915585
  },
  {
    "name": "신포중학교",
    "lat": 38.0255757,
    "lng": 127.6427332
  },
  {
    "name": "경포대초등학교병설유치원",
    "lat": 37.8048287,
    "lng": 128.9007206
  },
  {
    "name": "남원주초등학교병설유치원",
    "lat": 37.3225063,
    "lng": 127.9510099
  },
  {
    "name": "묵호고등학교",
    "lat": 37.5379521,
    "lng": 129.0958973
  },
  {
    "name": "남호초등학교",
    "lat": 37.5342016,
    "lng": 129.1129804
  },
  {
    "name": "조양초등학교병설유치원",
    "lat": 37.7512064,
    "lng": 127.7956208
  },
  {
    "name": "원덕고등학교",
    "lat": 37.1783682,
    "lng": 129.3322558
  },
  {
    "name": "내성초등학교병설유치원",
    "lat": 37.1899815,
    "lng": 128.4746237
  },
  {
    "name": "강릉초등학교",
    "lat": 37.7534507,
    "lng": 128.8881929
  },
  {
    "name": "화천유치원",
    "lat": 38.1053284,
    "lng": 127.7090021
  },
  {
    "name": "산내들유치원",
    "lat": 37.3200961,
    "lng": 127.8392032
  },
  {
    "name": "반곡드림유치원",
    "lat": 37.3319658,
    "lng": 127.9688454
  },
  {
    "name": "경포초등학교",
    "lat": 37.7697987,
    "lng": 128.8797353
  },
  {
    "name": "고한고등학교",
    "lat": 37.2064002,
    "lng": 128.852272
  },
  {
    "name": "석사초등학교병설유치원",
    "lat": 37.8577332,
    "lng": 127.7496167
  },
  {
    "name": "횡성여자고등학교",
    "lat": 37.4757734,
    "lng": 127.9820523
  },
  {
    "name": "나영유치원",
    "lat": 37.373563,
    "lng": 127.9537262
  },
  {
    "name": "동산중학교",
    "lat": 37.7503476,
    "lng": 127.7904296
  },
  {
    "name": "태봉초등학교",
    "lat": 37.3860597,
    "lng": 127.9563969
  },
  {
    "name": "속초청해학교",
    "lat": 38.2189781,
    "lng": 128.5603367
  }
]